City_ID,City,Cloudiness,Country,Date,Humidity,Lat,Lng,Max Temp,Wind Speed
0,yellowknife,90,CA,1548900000,76,62.45,-114.38,-5.81,6.93
1,rafaela,68,AR,1548903030,91,-31.25,-61.49,79.48,2.95
2,faanui,88,PF,1548903387,99,-16.48,-151.75,83.98,20.07
3,coquimbo,75,CL,1548900000,93,-29.95,-71.34,62.6,5.82
4,mataura,44,NZ,1548903252,41,-46.19,168.86,85.69,20.07
5,provideniya,75,RU,1548901800,57,64.42,-173.23,19.4,20.13
6,pevek,44,RU,1548903249,93,69.7,170.27,-21.15,3.85
7,barrow,0,AR,1548903277,86,-38.31,-60.23,58.51,6.2
8,thompson,5,CA,1548900000,65,55.74,-97.86,-36.41,2.62
9,jamestown,0,AU,1548903093,44,-33.21,138.6,76.91,11.01
10,manggar,56,ID,1548903534,100,-2.88,108.27,80.15,5.64
11,atikokan,8,CA,1548903258,61,48.76,-91.62,-21.64,5.64
12,marsh harbour,56,BS,1548903438,100,26.54,-77.06,70.66,12.8
13,touros,40,BR,1548900000,83,-5.2,-35.46,80.6,6.93
14,sitka,0,US,1548903445,62,37.17,-99.65,32.09,11.45
15,antalaha,80,MG,1548903535,96,-14.9,50.28,76.51,7.2
16,airai,32,TL,1548903287,78,-8.93,125.41,79.48,2.06
17,nemuro,75,JP,1548901380,68,43.32,145.57,24.8,10.29
18,naze,48,NG,1548903450,95,5.43,7.07,72.77,2.62
19,hermanus,88,ZA,1548903254,96,-34.42,19.24,60.71,4.29
20,port elizabeth,1,US,1548899760,37,39.31,-74.98,15.98,16.11
21,butaritari,76,KI,1548903286,100,3.07,172.79,83.93,13.47
22,dayong,68,PH,1548903537,96,11.74,122.04,79.07,19.84
23,thinadhoo,44,MV,1548903538,98,0.53,72.93,83.26,17.27
24,okha,88,RU,1548903538,87,53.59,142.95,17.69,7.87
25,kijabe,75,KE,1548901800,77,-0.95,36.6,64.4,6.93
26,muisne,44,EC,1548903539,91,0.61,-80.02,74.12,3.06
27,nampa,1,US,1548900900,69,43.57,-116.56,35.96,3.18
28,dikson,0,RU,1548903313,77,73.51,80.55,-16.96,7.2
29,punta arenas,75,CL,1548900000,75,-53.16,-70.91,44.6,5.82
30,castro,0,CL,1548900000,76,-42.48,-73.76,48.2,6.93
31,cananeia,0,BR,1548903540,100,-25.01,-47.93,80.15,6.42
32,yekaterinoslavka,36,RU,1548903540,80,54.34,72.46,-1.12,11.34
33,henties bay,92,NA,1548903352,100,-22.12,14.28,62.11,2.17
34,ushuaia,75,AR,1548900000,81,-54.81,-68.31,42.8,19.46
35,kavieng,56,PG,1548903312,100,-2.57,150.8,83.48,8.88
36,necochea,0,AR,1548903541,89,-38.55,-58.74,58.24,7.54
37,rikitea,44,PF,1548903251,100,-23.12,-134.97,81.14,8.99
38,cabinda,76,AO,1548903542,100,-5.56,12.19,77.59,3.74
39,ulladulla,0,AU,1548900000,25,-35.36,150.48,98.6,18.34
40,weihe,0,CN,1548903543,59,32.99,105.33,35.15,2.17
41,srednekolymsk,56,RU,1548903543,71,67.46,153.71,-36.4,3.18
42,albany,20,US,1548899940,37,42.65,-73.75,3.92,13.87
43,roald,68,NO,1548901200,41,62.58,6.12,39.2,10.29
44,luderitz,20,NA,1548903400,91,-26.65,15.16,59.41,15.48
45,koster,0,ZA,1548903544,89,-25.86,26.9,54.46,2.73
46,chiredzi,0,ZW,1548903544,83,-21.05,31.67,65.53,2.39
47,capaccio,90,IT,1548899700,86,40.42,15.08,28.4,20.8
48,saskylakh,76,RU,1548903283,62,71.97,114.09,-13.23,12.24
49,nanortalik,0,GL,1548903396,100,60.14,-45.24,27.23,24.2
50,port augusta,0,AU,1548900000,43,-32.49,137.76,73.4,21.92
51,hasaki,75,JP,1548901800,86,35.73,140.83,46.4,8.05
52,vaini,8,IN,1548900000,76,15.34,74.49,57.2,4.74
53,puerto ayora,88,EC,1548903279,100,-0.74,-90.35,78.76,4.97
54,avarua,40,CK,1548900000,74,-21.21,-159.78,86.0,11.41
55,wanxian,68,CN,1548903547,98,30.8,108.39,43.21,3.18
56,cape town,0,ZA,1548900000,82,-33.93,18.42,68.0,16.11
57,ilulissat,64,GL,1548899400,77,69.22,-51.1,3.2,9.17
58,hilo,90,US,1548899580,68,19.71,-155.08,73.94,12.75
59,constantine,20,DZ,1548901800,94,36.36,6.61,33.8,2.24
60,liwale,92,TZ,1548903299,98,-9.8,37.92,72.05,2.62
61,kapaa,75,US,1548899760,68,22.08,-159.32,78.08,20.8
62,bethel,90,US,1548901920,95,60.79,-161.76,26.6,6.93
63,cabo san lucas,5,MX,1548898860,82,22.89,-109.91,73.4,3.36
64,grand baie,75,MU,1548900000,78,-20.02,57.58,80.6,6.93
65,meulaboh,88,ID,1548903281,100,4.14,96.13,77.23,4.97
66,waltershausen,40,DE,1548901200,86,50.9,10.57,30.2,6.93
67,shizunai,32,JP,1548903550,93,42.33,142.37,23.36,14.81
68,imeni poliny osipenko,64,RU,1548903550,62,52.42,136.49,6.71,11.34
69,praia da vitoria,40,PT,1548900000,87,38.73,-27.07,60.8,22.3
70,dondo,0,MZ,1548900000,78,-19.62,34.74,77.0,6.53
71,esperance,20,TT,1548900000,88,10.24,-61.45,73.4,5.3
72,solwezi,92,ZM,1548903551,100,-12.18,26.4,62.15,3.74
73,caala,76,AO,1548903552,100,-12.85,15.56,60.53,0.72
74,ancud,24,CL,1548900000,76,-41.87,-73.83,48.2,6.93
75,boguchany,44,RU,1548903413,79,58.38,97.46,-1.66,2.84
76,east london,92,ZA,1548903260,100,-33.02,27.91,71.78,13.91
77,iqaluit,40,CA,1548900000,82,63.75,-68.52,-25.61,2.24
78,qaanaaq,56,GL,1548903253,96,77.48,-69.36,-5.44,7.54
79,bathsheba,20,BB,1548900000,69,13.22,-59.52,77.0,12.75
80,busselton,0,AU,1548903267,77,-33.64,115.35,75.92,10.56
81,mandan,75,US,1548902100,83,46.83,-100.89,-11.03,8.05
82,upernavik,56,GL,1548903282,96,72.79,-56.15,6.71,10.11
83,belyy yar,0,RU,1548901800,44,53.6,91.39,17.6,4.47
84,gao,0,ML,1548903555,62,16.28,-0.04,51.71,3.62
85,porkhov,92,RU,1548900000,100,57.77,29.55,26.6,2.24
86,singojuruh,80,ID,1548903555,92,-8.31,114.21,79.25,2.17
87,hamilton,40,BM,1548899700,88,32.3,-64.78,66.2,10.29
88,hailun,48,CN,1548903556,53,47.46,126.97,7.39,5.3
89,adrar,0,DZ,1548900000,29,27.87,-0.29,48.2,4.7
90,lasa,75,CY,1548901800,63,34.92,32.53,60.8,13.87
91,norman wells,75,CA,1548900000,70,65.28,-126.83,-2.21,23.04
92,kang,44,BW,1548903557,42,-23.67,22.79,71.15,8.43
93,longyearbyen,20,NO,1548899400,58,78.22,15.63,28.4,20.8
94,pasni,12,PK,1548903558,99,25.26,63.48,67.46,9.89
95,adre,0,TD,1548903559,58,13.47,22.2,60.76,4.41
96,vezirkopru,75,TR,1548901200,75,41.14,35.45,41.0,5.82
97,poronaysk,76,RU,1548903559,79,49.22,143.1,14.59,15.14
98,arraial do cabo,0,BR,1548903345,82,-22.97,-42.02,78.31,17.16
99,san luis,0,AR,1548903560,48,-33.3,-66.34,79.48,13.91
100,gediz,92,TR,1548903561,98,38.99,29.39,38.26,5.75
101,muyezerskiy,80,RU,1548903561,87,63.93,31.65,19.67,5.3
102,laguna,20,MX,1548898980,63,27.52,-110.01,64.4,3.36
103,hithadhoo,80,MV,1548903280,98,-0.6,73.08,83.84,18.05
104,vestmannaeyjar,0,IS,1548903312,100,63.44,-20.27,21.43,13.91
105,tucuman,24,PE,1548903562,90,-17.17,-70.89,60.04,1.72
106,bredasdorp,88,ZA,1548900000,88,-34.53,20.04,68.0,4.7
107,katsuura,75,JP,1548900000,81,33.93,134.5,46.4,1.12
108,fort nelson,90,CA,1548900000,84,58.81,-122.69,5.0,6.93
109,atuona,44,PF,1548903254,100,-9.8,-139.03,81.32,18.95
110,santa maria da vitoria,0,BR,1548903563,45,-13.39,-44.19,77.36,11.68
111,bluff,8,AU,1548903261,43,-23.58,149.07,90.86,13.58
112,karratha,0,AU,1548903313,41,-20.74,116.85,95.9,10.67
113,carballo,92,ES,1548901800,93,43.21,-8.69,55.4,11.41
114,tuktoyaktuk,90,CA,1548902640,76,69.44,-133.03,-4.01,24.16
115,llanes,92,ES,1548903565,93,43.42,-4.75,42.62,5.19
116,tena,68,EC,1548903565,96,-0.99,-77.82,61.39,2.73
117,uchkeken,90,RU,1548901800,67,43.95,42.51,33.8,15.66
118,mount gambier,75,AU,1548900000,40,-37.83,140.78,68.0,19.46
119,margate,75,AU,1548901800,47,-43.03,147.26,59.0,16.11
120,nyurba,24,RU,1548903315,42,63.29,118.35,-27.13,4.74
121,oron,68,NG,1548903566,96,4.81,8.23,76.01,4.63
122,burnie,8,AU,1548903567,100,-41.05,145.91,59.68,25.55
123,chuy,64,UY,1548903318,94,-33.69,-53.46,76.69,2.51
124,yerbogachen,48,RU,1548903357,66,61.28,108.01,-22.95,4.85
125,portland,1,US,1548899760,62,45.52,-122.67,46.04,5.82
126,malumfashi,0,NG,1548903568,35,11.79,7.62,59.27,8.32
127,turiacu,64,BR,1548903568,95,-5.01,-63.0,77.86,2.17
128,la plata,0,AR,1548900000,88,-34.92,-57.95,78.8,3.36
129,bud,88,NO,1548901200,47,62.91,6.91,39.2,12.75
130,torbay,90,CA,1548901440,92,47.66,-52.73,30.2,14.99
131,noumea,0,NC,1548901800,55,-22.28,166.46,86.0,20.8
132,port hedland,8,AU,1548901800,56,-20.31,118.58,95.0,14.99
133,kavaratti,0,IN,1548903435,100,10.57,72.64,81.95,4.97
134,port alfred,68,ZA,1548903281,98,-33.59,26.89,69.08,9.78
135,victoria,75,BN,1548901800,74,5.28,115.24,87.8,1.12
136,shaunavon,80,CA,1548903571,80,49.65,-108.41,17.06,4.41
137,saint-philippe,1,CA,1548902820,50,45.36,-73.48,5.0,27.51
138,hualmay,20,PE,1548903571,91,-11.1,-77.61,68.59,3.85
139,ostrovnoy,88,RU,1548903386,91,68.05,39.51,9.05,14.7
140,kondinskoye,24,RU,1548903572,38,59.65,67.41,-24.52,4.29
141,cache creek,90,CA,1548900000,73,50.81,-121.33,33.8,4.7
142,senanga,24,ZM,1548903572,91,-16.1,23.3,67.73,3.4
143,vila franca do campo,75,PT,1548900000,93,37.72,-25.43,62.6,16.11
144,ternate,75,PH,1548900000,65,14.29,120.72,82.4,4.7
145,rabo de peixe,75,PT,1548900000,93,37.8,-25.58,62.6,16.11
146,london,0,GB,1548901200,100,51.51,-0.13,26.6,2.24
147,hirara,40,JP,1548900000,69,24.8,125.28,77.0,13.87
148,carnarvon,0,ZA,1548903280,92,-30.97,22.13,50.09,3.51
149,hobart,75,AU,1548901800,47,-42.88,147.33,59.0,16.11
150,amazar,0,RU,1548903575,51,53.86,120.88,-11.2,2.95
151,zelenoborsk,56,RU,1548903575,66,61.47,64.05,-22.32,3.85
152,alexandria,90,US,1548902100,86,31.31,-92.44,42.98,3.74
153,half moon bay,75,US,1548902400,93,37.46,-122.43,62.06,6.93
154,kibaya,20,RW,1548901800,93,-2.2,30.56,62.6,2.24
155,ponta do sol,68,BR,1548903328,45,-20.63,-46.0,76.96,6.2
156,baykit,48,RU,1548903577,38,61.68,96.39,-26.14,9.22
157,richards bay,0,ZA,1548903318,77,-28.77,32.06,72.86,11.56
158,igarka,0,RU,1548903577,0,67.47,86.57,-51.61,5.64
159,beringovskiy,32,RU,1548903305,85,63.05,179.32,2.93,8.1
160,lazaro cardenas,40,MX,1548898800,32,28.39,-105.62,51.8,3.36
161,manzanillo,76,CU,1548903578,100,20.34,-77.12,75.56,19.39
162,bubaque,12,GW,1548903578,100,11.28,-15.83,76.28,9.55
163,pacific grove,90,US,1548901800,71,36.62,-121.92,59.0,8.05
164,geraldton,75,CA,1548900000,61,49.72,-86.95,-20.21,11.41
165,taksimo,20,RU,1548903428,65,56.36,114.84,-24.7,2.39
166,san andres,24,PH,1548903580,97,13.32,122.68,78.94,10.89
167,broken hill,0,AU,1548900000,39,-31.97,141.45,78.8,16.11
168,sioux lookout,5,CA,1548900000,73,50.1,-91.92,-27.41,3.36
169,mocuba,0,MZ,1548903580,92,-16.84,36.99,68.36,2.73
170,dokka,88,NO,1548903581,91,60.83,10.07,9.64,2.51
171,pangoa,68,PE,1548903581,100,-12.12,-73.0,63.73,1.61
172,talnakh,0,RU,1548903390,0,69.49,88.39,-52.51,3.29
173,chokurdakh,0,RU,1548903352,0,70.62,147.9,-50.85,2.95
174,new norfolk,75,AU,1548901800,47,-42.78,147.06,59.0,16.11
175,te anau,88,NZ,1548903261,48,-45.41,167.72,74.75,14.03
176,padang,5,ID,1548901800,62,-0.92,100.36,86.0,2.24
177,isangel,76,VU,1548903303,99,-19.55,169.27,80.24,15.48
178,baiyin,0,CN,1548900000,72,36.55,104.13,10.4,4.47
179,severo-kurilsk,88,RU,1548903268,100,50.68,156.12,31.24,9.33
180,lompoc,1,US,1548902100,87,34.64,-120.46,57.92,4.7
181,omsukchan,76,RU,1548903296,73,62.53,155.8,-18.31,3.62
182,doka,0,SD,1548903584,63,13.52,35.76,67.69,8.66
183,buala,36,SB,1548903584,90,-8.15,159.59,83.44,10.11
184,awjilah,20,LY,1548903585,41,29.14,21.3,45.68,11.12
185,thayetmyo,0,MM,1548903585,72,19.32,95.18,68.9,12.46
186,saint-pierre,90,FR,1548900000,89,48.95,4.24,33.8,4.7
187,la ronge,75,CA,1548900000,62,55.1,-105.3,-13.01,11.41
188,monte alegre,68,BR,1548903586,92,-2.0,-54.07,76.19,2.73
189,black river,75,JM,1548900000,83,18.03,-77.85,75.2,9.17
190,georgetown,75,GY,1548900000,100,6.8,-58.16,75.2,4.7
191,palmer,90,US,1548902040,100,61.6,-149.11,32.0,2.39
192,lagoa,40,PT,1548900000,93,37.14,-8.45,57.2,18.34
193,maksatikha,88,RU,1548903588,96,57.8,35.88,27.91,6.53
194,ranong,0,TH,1548900000,66,9.96,98.62,84.2,5.82
195,nome,1,US,1548902100,50,30.04,-94.42,45.32,7.99
196,lima,0,PE,1548900000,83,-12.06,-77.04,75.2,8.05
197,morondava,0,MG,1548903590,100,-20.3,44.28,74.3,2.95
198,odder,92,DK,1548901200,86,55.98,10.15,33.8,14.99
199,scarborough,0,GB,1548899400,92,54.28,-0.41,26.6,3.36
200,sambava,88,MG,1548903591,100,-14.27,50.17,78.94,11.23
201,pangnirtung,5,CA,1548900000,74,66.15,-65.72,-22.01,4.7
202,svetlaya,0,RU,1548903591,100,46.54,138.33,17.51,23.09
203,saint george,40,GR,1548899400,93,39.45,22.34,42.8,2.28
204,santa isabel do rio negro,20,BR,1548903592,95,-0.41,-65.02,77.59,2.06
205,new philadelphia,1,US,1548900960,54,40.49,-81.45,-2.03,6.93
206,christchurch,20,NZ,1548901800,64,-43.53,172.64,73.4,19.46
207,kodiak,90,US,1548902100,40,39.95,-94.76,1.04,4.7
208,minsk,90,BY,1548901800,100,53.9,27.56,30.2,6.71
209,la rioja,68,AR,1548903593,87,-29.41,-66.86,72.59,2.17
210,xining,0,CN,1548903491,17,36.62,101.77,22.82,7.43
211,mayo,20,CA,1548900000,65,63.59,-135.9,6.8,6.93
212,namibe,12,AO,1548903467,100,-15.19,12.15,73.18,8.55
213,waingapu,76,ID,1548903594,85,-9.65,120.26,82.22,6.98
214,port lincoln,0,AU,1548903376,79,-34.72,135.86,68.99,17.16
215,walla walla,90,US,1548899760,78,46.06,-118.33,33.08,4.7
216,camrose,90,CA,1548900360,74,53.01,-112.84,35.6,4.7
217,dickinson,90,US,1548899760,75,46.88,-102.79,1.94,16.11
218,whitehorse,90,CA,1548900000,92,60.72,-135.06,21.2,11.41
219,ilo,20,PE,1548903596,92,-17.65,-71.34,67.69,2.28
220,kloulklubed,90,PW,1548903000,83,7.04,134.26,80.6,8.05
221,upington,0,ZA,1548900000,60,-28.46,21.24,69.8,5.82
222,la orilla,0,MX,1548903598,100,18.0,-102.23,69.98,2.95
223,simao,0,CN,1548903598,68,22.76,100.79,59.09,2.95
224,mar del plata,64,AR,1548903359,47,-46.43,-67.52,60.35,15.03
225,byron bay,12,AU,1548901800,62,-28.65,153.62,87.8,8.05
226,egvekinot,12,RU,1548903362,55,66.32,-179.17,-19.62,2.39
227,mayaky,88,UA,1548903599,94,47.44,29.56,35.33,9.78
228,pucallpa,75,PE,1548900000,94,-8.38,-74.54,77.0,3.36
229,cayhagan,68,PH,1548903600,82,9.67,122.43,82.81,10.56
230,poum,32,MK,1548903466,81,41.28,20.71,22.01,1.72
231,la sarre,48,CA,1548903603,68,48.8,-79.2,-10.08,10.89
232,campo verde,75,PE,1548900000,94,-8.47,-74.81,77.0,3.36
233,aktau,75,KZ,1548901800,100,43.65,51.16,26.6,11.18
234,komsomolskiy,0,RU,1548903330,0,67.55,63.78,-41.85,3.18
235,cururupu,100,BR,1548903605,88,-1.82,-44.87,78.71,5.41
236,qianan,0,CN,1548903605,33,44.99,124.06,15.04,10.0
237,storforshei,0,NO,1548903605,71,66.4,14.52,-17.86,3.4
238,belaya gora,0,RU,1548903606,0,68.54,146.19,-53.73,2.73
239,xiongzhou,90,CN,1548900000,93,32.34,118.83,35.6,8.95
240,victor harbor,20,AU,1548901800,38,-35.55,138.62,73.4,16.11
241,starychi,90,UA,1548901800,94,49.97,23.55,32.0,4.47
242,boca do acre,56,BR,1548903607,98,-8.76,-67.39,72.95,2.17
243,ginir,0,ET,1548903608,72,7.14,40.71,46.4,2.95
244,cuautepec,0,MX,1548903608,100,16.75,-99.0,65.75,2.39
245,ibadan,88,NG,1548903609,96,7.38,3.9,74.08,3.74
246,khurba,56,RU,1548903612,63,50.41,136.89,8.96,8.21
247,gorontalo,24,ID,1548903612,70,0.54,123.06,85.01,2.62
248,tabas,12,IR,1548903612,79,33.6,56.92,30.34,3.51
249,salalah,0,OM,1548899400,64,17.01,54.1,69.8,3.36
250,araguaina,0,BR,1548903383,85,-7.19,-48.21,74.71,7.31
251,ca mau,0,VN,1548903393,76,9.18,105.15,84.2,15.82
252,takoradi,0,GH,1548903614,100,4.89,-1.75,80.33,7.99
253,lebu,0,ET,1548903360,77,8.96,38.73,34.48,2.62
254,khatanga,48,RU,1548903262,76,71.98,102.47,-37.3,2.95
255,tual,64,ID,1548903615,100,-5.67,132.75,83.12,21.85
256,rawlins,90,US,1548902100,36,41.79,-107.24,30.2,6.93
257,kaohsiung,75,TW,1548901800,37,22.62,120.31,82.4,5.82
258,chara,75,GR,1548903000,100,39.42,22.43,41.0,2.28
259,beira,92,ES,1548901800,93,43.2,-8.36,55.4,11.41
260,quatre cocos,75,MU,1548900000,78,-20.21,57.76,80.6,6.93
261,bay roberts,90,CA,1548901440,92,47.58,-53.28,30.2,14.99
262,genhe,20,CN,1548903617,61,50.78,121.52,-1.12,4.18
263,susanville,1,US,1548902100,86,40.42,-120.65,37.4,5.82
264,general pico,0,AR,1548903617,79,-35.66,-63.75,67.73,1.16
265,venice,90,US,1548903300,58,27.1,-82.45,53.96,17.22
266,kingston,90,CA,1548902580,91,44.23,-76.48,6.98,18.34
267,tuatapere,88,NZ,1548903292,58,-46.13,167.69,72.73,17.05
268,poyarkovo,0,RU,1548903391,49,49.62,128.65,1.81,7.43
269,sanming,76,CN,1548903620,79,26.24,117.6,60.71,3.18
270,huruta,0,ET,1548903620,80,8.15,39.35,45.77,3.62
271,vanimo,68,PG,1548903299,100,-2.67,141.3,81.64,15.14
272,fairbanks,1,US,1548899880,75,64.84,-147.72,15.62,5.82
273,faya,0,SA,1548900000,62,18.39,42.45,55.4,3.96
274,champerico,5,MX,1548899100,68,16.38,-93.6,71.6,13.87
275,tasiilaq,20,GL,1548899400,55,65.61,-37.64,10.4,3.36
276,atasu,76,KZ,1548903621,87,48.68,71.64,15.31,9.22
277,kapit,92,MY,1548903622,93,2.02,112.94,74.53,2.39
278,vestmanna,0,FO,1548901200,73,62.16,-7.17,21.2,10.45
279,dharchula,92,IN,1548903623,99,29.85,80.53,30.83,0.83
280,luhyny,76,UA,1548903623,95,51.08,28.4,34.88,10.56
281,ahipara,0,NZ,1548903623,54,-35.17,173.16,80.56,5.19
282,sabang,12,PH,1548903624,86,13.72,123.58,79.43,11.23
283,rio cuarto,40,AR,1548900000,83,-33.13,-64.35,75.2,5.82
284,salinopolis,76,BR,1548903368,100,-0.61,-47.36,79.07,10.78
285,springbok,0,ZA,1548903624,88,-29.67,17.88,46.22,2.84
286,hobyo,0,SO,1548903292,88,5.35,48.53,73.49,17.16
287,ribeira grande,92,PT,1548903267,97,38.52,-28.7,62.6,18.72
288,rognan,0,NO,1548899400,57,67.1,15.4,23.0,26.4
289,nelson bay,0,AU,1548901800,28,-32.72,152.14,96.8,17.22
290,guerrero negro,12,MX,1548903301,100,27.97,-114.04,54.41,6.53
291,opuwo,80,NA,1548903626,79,-18.06,13.84,66.83,4.74
292,vung tau,0,VN,1548903626,86,10.35,107.08,81.01,18.84
293,tautira,75,PF,1548901800,88,-17.73,-149.15,77.0,24.16
294,kalmunai,92,LK,1548903627,91,7.42,81.82,76.28,5.64
295,mahebourg,75,MU,1548900000,78,-20.41,57.7,80.6,6.93
296,azare,0,NG,1548903627,30,11.67,10.19,58.51,8.77
297,sinnamary,92,GF,1548903398,100,5.38,-52.96,78.13,12.68
298,dimona,0,IL,1548903628,83,31.07,35.04,37.63,2.73
299,gannan,0,CN,1548903628,28,47.92,123.49,14.09,4.97
300,dolores,0,AR,1548903629,79,-36.31,-57.68,65.3,13.69
301,nouakchott,0,MR,1548901800,82,18.08,-15.98,59.0,8.05
302,buraydah,20,SA,1548900000,100,26.33,43.97,53.6,2.95
303,begowal,88,IN,1548903630,89,30.81,76.06,50.54,2.62
304,ytre arna,75,NO,1548899400,55,60.47,5.43,35.6,35.57
305,glasgow,75,GB,1548901200,92,55.86,-4.24,26.6,2.24
306,gat,8,SN,1548901800,77,14.69,-16.54,64.4,19.46
307,viljoenskroon,12,ZA,1548903631,92,-27.21,26.95,57.16,2.95
308,manado,40,ID,1548901800,74,1.49,124.85,82.4,3.36
309,port macquarie,76,AU,1548900000,27,-31.43,152.91,98.6,8.05
310,tanta,0,EG,1548903632,73,30.78,31.0,38.39,5.64
311,cortez,1,US,1548899580,62,37.35,-108.58,26.96,6.93
312,dedougou,0,BF,1548903632,57,12.47,-3.47,60.76,2.84
313,wadi maliz,24,TN,1548900000,61,36.47,8.55,48.2,8.05
314,todos santos,5,MX,1548898860,27,23.45,-110.23,73.4,6.93
315,nikolskoye,75,RU,1548901800,100,59.7,30.79,26.6,2.24
316,tessalit,0,ML,1548903320,49,20.2,1.01,42.53,3.06
317,kaitangata,0,NZ,1548903259,77,-46.28,169.85,80.38,4.63
318,anshun,68,CN,1548903635,79,26.25,105.93,45.05,7.31
319,puro,32,PH,1548903635,79,13.13,123.76,80.33,10.22
320,vostok,44,RU,1548903371,53,46.45,135.83,2.93,8.55
321,bambous virieux,75,MU,1548900000,78,-20.34,57.76,80.6,6.93
322,rozhyshche,92,UA,1548903636,96,50.92,25.27,32.14,3.29
323,briceno,64,CO,1548903637,98,7.11,-75.55,64.81,1.05
324,aranos,8,NA,1548903637,60,-24.14,19.11,70.66,8.77
325,salinas,90,US,1548901800,71,36.67,-121.66,59.0,8.05
326,brae,48,GB,1548901200,92,60.4,-1.35,35.6,2.24
327,caravelas,76,BR,1548903323,99,-17.73,-39.27,82.63,11.68
328,fushun,0,CN,1548901800,21,41.89,123.95,17.6,6.71
329,pingliang,0,CN,1548903386,81,35.54,106.68,18.23,4.18
330,bend,1,US,1548903300,86,44.06,-121.32,33.8,3.62
331,orange,0,AU,1548903542,35,-33.28,149.1,92.53,10.89
332,dukat,56,RS,1548903639,93,42.44,22.31,24.44,1.95
333,cidreira,44,BR,1548903347,88,-30.17,-50.22,77.59,4.07
334,nesterov,68,RU,1548903640,94,54.63,22.57,23.54,9.22
335,radhanpur,8,IN,1548903640,70,23.83,71.61,50.86,2.73
336,lesnoy,92,RU,1548903641,85,59.78,52.13,15.49,6.76
337,alamosa,1,US,1548902100,59,37.47,-105.87,6.62,11.41
338,chegdomyn,48,RU,1548903641,58,51.13,133.04,-3.19,5.97
339,orda,36,RU,1548903642,68,57.2,56.91,-1.08,5.75
340,abashiri,75,JP,1548900000,73,44.01,144.25,23.0,5.82
341,maxixe,80,MZ,1548903642,100,-23.86,35.35,75.65,4.07
342,tarut,0,SA,1548901800,82,26.57,50.06,62.6,4.7
343,havre-saint-pierre,90,CA,1548900000,92,50.23,-63.6,26.6,20.8
344,svetlogorsk,90,RU,1548901800,85,53.14,59.15,12.2,8.95
345,musoma,20,TZ,1548900000,88,-1.5,33.81,68.0,4.97
346,vinh long,0,VN,1548901800,61,10.25,105.97,82.4,12.75
347,saldanha,92,PT,1548903338,98,41.42,-6.55,49.46,13.69
348,pochutla,5,MX,1548899100,65,15.74,-96.47,78.8,1.39
349,bhag,20,PK,1548903645,93,29.04,67.82,52.61,3.06
350,biltine,0,TD,1548903646,46,14.53,20.93,60.04,4.74
351,kruisfontein,100,ZA,1548903286,93,-34.0,24.73,66.02,5.97
352,moerai,92,PF,1548903646,93,-22.43,-151.33,82.13,22.08
353,pilot butte,90,CA,1548901920,69,50.48,-104.42,-7.61,23.04
354,konce,68,MK,1548903647,95,41.5,22.39,30.61,0.72
355,strezhevoy,20,RU,1548901800,72,60.73,77.6,-43.61,2.24
356,narsaq,0,GL,1548899400,41,60.91,-46.05,21.2,6.93
357,pecos,1,US,1548900900,38,31.42,-103.49,44.06,7.65
358,santa marta,20,CO,1548900000,58,11.24,-74.21,82.4,16.11
359,zhigansk,0,RU,1548903375,0,66.77,123.37,-45.13,3.4
360,tiksi,48,RU,1548903332,57,71.64,128.87,-32.62,8.32
361,nador,92,MA,1548901800,77,35.17,-2.93,59.0,8.05
362,havoysund,44,NO,1548901200,67,71.0,24.66,17.6,40.26
363,nazarovo,48,RU,1548903651,74,56.01,90.42,-0.22,7.65
364,bezhanitsy,80,RU,1548903651,86,56.97,29.88,22.64,3.18
365,roela,80,EE,1548903651,90,59.17,26.59,25.61,5.19
366,kibala,0,TD,1548900000,15,9.11,18.35,77.0,6.93
367,zaraza,0,VE,1548903652,71,9.35,-65.33,76.55,12.01
368,lexington,90,US,1548902100,54,38.05,-84.5,8.6,4.7
369,axim,0,GH,1548903652,99,4.87,-2.24,81.95,10.78
370,itoman,75,JP,1548901800,64,26.12,127.67,75.74,16.11
371,mitu,44,IR,1548903282,86,36.2,46.09,20.98,2.62
372,kamphaeng phet,8,TH,1548903653,56,16.47,99.53,86.45,3.85
373,priargunsk,48,RU,1548903654,49,50.37,119.09,7.79,11.01
374,celestun,0,MX,1548903654,98,20.87,-90.4,72.86,22.41
375,alta floresta,56,BR,1548903655,90,-9.87,-56.08,75.88,1.95
376,pizarro,24,CO,1548903655,95,4.95,-77.37,78.04,4.52
377,hajiganj,0,BD,1548903655,71,23.25,90.85,66.34,8.66
378,barbastro,76,ES,1548901800,100,42.04,0.13,39.2,3.36
379,riyadh,0,SA,1548900000,47,24.63,46.72,57.2,2.24
380,fonte boa,8,BR,1548903656,95,-2.51,-66.09,77.18,3.62
381,jumla,92,NP,1548903656,97,29.28,82.18,25.07,1.61
382,tateyama,75,JP,1548900000,93,36.66,137.31,41.0,3.36
383,ishigaki,75,JP,1548900000,73,24.34,124.16,75.2,10.29
384,saint anthony,1,US,1548899760,73,43.97,-111.68,12.92,3.36
385,coihaique,90,CL,1548900000,61,-45.58,-72.07,50.0,5.82
386,ambon,40,FR,1548901800,100,47.55,-2.56,33.8,6.93
387,balabac,64,PH,1548903658,96,7.99,117.06,81.46,13.91
388,papara,20,BR,1548900000,83,-3.98,-38.73,82.4,11.41
389,hofn,0,IS,1548903659,100,64.25,-15.21,30.88,22.41
390,kampene,92,CD,1548903659,100,-3.59,26.67,67.01,2.17
391,harper,90,US,1548903060,73,30.3,-99.24,48.02,8.05
392,sotouboua,20,TG,1548903660,86,8.56,0.98,75.83,5.64
393,zhezkazgan,75,KZ,1548901800,84,47.8,67.71,5.0,15.66
394,vra,76,DK,1548903661,100,57.35,9.95,33.76,20.29
395,westport,80,IE,1548903661,100,53.8,-9.52,34.97,12.57
396,bowen,100,AU,1548903662,100,-20.01,148.25,77.41,21.52
397,ngunguru,0,NZ,1548903298,92,-35.62,174.5,71.83,11.45
398,biryusinsk,64,RU,1548903662,67,55.96,97.82,6.98,4.74
399,sao filipe,92,CV,1548903251,97,14.9,-24.5,70.97,19.73
400,caibarien,20,CU,1548899640,82,22.52,-79.47,62.6,4.7
401,tolaga bay,0,NZ,1548903663,56,-38.37,178.3,74.12,13.24
402,dunn,1,US,1548903300,50,35.31,-78.61,37.4,8.66
403,mae hong son,40,MM,1548900000,100,19.3,97.96,62.6,2.62
404,port arthur,1,US,1548903300,60,29.9,-93.93,51.8,6.93
405,bireun,36,ID,1548903664,100,5.2,96.7,79.43,7.2
406,salta,75,AR,1548900000,94,-24.79,-65.41,69.8,0.94
407,leh,56,IN,1548903665,79,34.16,77.58,-14.71,1.16
408,ico,88,PE,1548903666,96,-13.77,-72.87,45.01,1.95
409,mandalgovi,0,MN,1548903666,41,45.76,106.27,2.39,13.69
410,seoul,40,KR,1548901800,26,37.57,126.98,33.8,3.36
411,los llanos de aridane,8,ES,1548901800,77,28.66,-17.92,60.8,5.82
412,shenjiamen,88,CN,1548903667,100,29.96,122.3,49.82,28.9
413,bambanglipuro,20,ID,1548903384,92,-7.95,110.28,83.26,4.18
414,clyde river,1,CA,1548900000,83,70.47,-68.59,-13.01,5.82
415,bereznik,68,RU,1548903668,86,62.86,42.71,21.79,4.18
416,northam,20,GB,1548901200,100,51.04,-4.21,30.2,2.24
417,camacha,75,PT,1548900000,59,33.08,-16.33,60.8,11.41
418,otavi,24,NA,1548903669,88,-19.64,17.34,60.62,1.39
419,north myrtle beach,1,US,1548902100,100,33.83,-78.68,40.64,15.59
420,souillac,90,FR,1548901800,100,45.6,-0.6,42.8,4.7
421,erenhot,0,CN,1548903670,29,43.65,111.97,6.49,16.26
422,san quintin,44,PH,1548903311,51,17.54,120.52,81.01,3.74
423,bandundu,64,CD,1548903670,99,-3.32,17.38,71.56,2.95
424,soyo,92,AO,1548903670,96,-6.13,12.37,77.18,2.62
425,longhua,48,CN,1548903671,100,29.21,106.21,46.31,4.07
426,seddon,8,NZ,1548903671,63,-41.67,174.07,75.65,7.76
427,talara,56,PE,1548903350,84,-4.58,-81.27,74.53,4.63
428,kahului,40,US,1548899760,66,20.89,-156.47,80.06,18.34
429,yokosuka,75,JP,1548901800,81,35.24,139.66,42.8,2.24
430,sidi ali,100,DZ,1548903672,91,36.1,0.42,54.32,13.69
431,kirakira,92,SB,1548903673,100,-10.46,161.92,80.74,15.48
432,mareeba,40,AU,1548901800,83,-16.99,145.42,84.2,8.05
433,kalakamati,0,BW,1548903673,68,-20.59,27.31,64.31,10.67
434,udachnyy,32,RU,1548903267,0,66.42,112.4,-46.8,3.18
435,innisfail,90,CA,1548900000,80,52.02,-113.95,32.0,8.05
436,luanda,75,AO,1548900000,78,-8.83,13.24,80.6,6.93
437,jackson,90,US,1548903180,51,35.61,-88.82,23.0,3.36
438,onguday,44,RU,1548903675,53,50.75,86.14,-13.63,1.95
439,skjervoy,12,NO,1548903675,100,70.03,20.97,20.03,12.35
440,alofi,75,NU,1548900000,74,-19.06,-169.92,84.2,12.75
441,vilyuysk,12,RU,1548903676,58,63.75,121.63,-32.98,4.18
442,krasnoshchekovo,68,RU,1548903677,55,51.67,82.73,-5.67,1.39
443,ipixuna,0,BR,1548900000,94,-1.76,-48.8,75.2,4.7
444,mahajanga,40,MG,1548900000,88,-15.72,46.32,77.0,4.7
445,husavik,0,CA,1548903276,0,50.56,-96.99,-43.24,3.74
446,xingyi,0,CN,1548903678,75,24.19,102.82,56.08,3.4
447,balaipungut,20,ID,1548903678,66,1.11,101.31,86.81,3.96
448,eirunepe,20,BR,1548903679,97,-6.66,-69.87,76.01,2.17
449,san roque,75,EC,1548900000,93,0.3,-78.23,57.2,6.93
450,salym,0,RU,1548903680,47,60.06,71.48,-28.66,3.85
451,le locle,75,CH,1548901200,85,47.06,6.75,32.0,3.36
452,kisiwani,76,TZ,1548903680,97,-4.13,37.95,64.54,2.62
453,umm lajj,0,SA,1548903363,100,25.02,37.27,59.72,8.66
454,sao sebastiao,56,BR,1548903681,94,-3.15,-58.36,77.14,4.18
455,porterville,1,US,1548902100,65,36.07,-119.02,60.08,3.36
456,jiaohe,0,CN,1548903681,45,43.72,127.34,10.36,5.08
457,noyabrsk,0,RU,1548903682,82,63.2,75.45,-38.97,7.65
458,jalingo,0,NG,1548903682,31,10.3,10.93,64.85,8.21
459,sorong,76,ID,1548903450,100,-0.86,131.25,78.94,2.51
460,sassandra,0,CI,1548903683,100,4.95,-6.09,80.78,11.79
461,ballina,68,IE,1548903396,100,54.11,-9.15,28.31,8.66
462,senno,76,RU,1548900000,100,57.76,27.95,26.6,2.24
463,tura,0,IN,1548903228,79,25.52,90.21,56.98,5.64
464,bagaha,64,IN,1548903684,61,27.1,84.09,55.31,4.29
465,churapcha,20,RU,1548903684,67,62.0,132.43,-35.68,3.62
466,college,1,US,1548899880,75,64.86,-147.8,21.02,5.82
467,ati,0,TD,1548903685,31,13.21,18.34,60.44,5.75
468,iaciara,0,BR,1548903685,39,-14.1,-46.63,76.91,8.99
469,klaksvik,0,FO,1548901200,73,62.23,-6.59,21.2,9.78
470,rocky mountain house,24,CA,1548903686,85,52.38,-114.92,24.44,1.83
471,nago,90,IT,1548899700,85,45.88,10.89,35.6,2.17
472,zwedru,0,LR,1548903687,95,6.07,-8.13,72.28,5.97
473,tripoli,92,GR,1548901200,87,37.51,22.37,50.0,4.7
474,rostock,75,DE,1548901200,86,54.09,12.13,30.2,10.29
475,la crosse,1,US,1548903180,55,43.8,-91.24,-18.05,5.82
476,tolga,40,DZ,1548900000,58,34.73,5.38,53.6,6.93
477,fortuna,0,ES,1548901800,54,38.18,-1.13,53.6,5.82
478,bonoua,20,CI,1548901800,94,5.27,-3.6,80.6,4.7
479,porto recanati,8,IT,1548903689,95,43.44,13.66,38.84,17.27
480,san patricio,0,PY,1548903689,64,-26.98,-56.83,80.6,3.51
481,frontera,40,MX,1548899400,82,18.53,-92.64,68.0,4.7
482,la serena,75,CL,1548900000,93,-29.9,-71.25,62.6,5.82
483,quzhou,92,CN,1548903690,100,28.97,118.86,49.91,4.41
484,jiangyou,20,CN,1548903691,72,31.78,104.73,45.05,6.2
485,maningrida,24,AU,1548903691,70,-12.05,134.23,91.31,23.09
486,miraflores,56,CO,1548903307,100,5.2,-73.14,51.26,0.72
487,darab,0,IR,1548903692,70,28.75,54.55,27.19,2.17
488,comodoro rivadavia,0,AR,1548900000,75,-45.87,-67.48,64.4,17.22
489,cabedelo,20,BR,1548900000,78,-6.97,-34.84,78.8,6.93
490,korem,0,ET,1548903692,78,12.51,39.52,34.79,0.94
491,trinidad,80,UY,1548903693,89,-33.52,-56.9,77.23,3.51
492,porto novo,0,BR,1548900000,69,-23.68,-45.44,75.2,2.95
493,paso del toro,90,MX,1548898920,88,19.04,-96.13,68.0,6.93
494,natal,20,BR,1548900000,74,-5.81,-35.21,82.4,9.17
495,yar-sale,8,RU,1548903349,82,66.83,70.83,-38.52,8.77
496,banamba,0,ML,1548903695,66,13.55,-7.45,59.68,3.06
497,tongren,24,CN,1548903695,98,27.72,109.18,39.11,9.66
498,sao raimundo das mangabeiras,8,BR,1548903696,71,-7.02,-45.48,77.86,8.66
499,tazovskiy,8,RU,1548903696,0,67.47,78.7,-44.41,6.98
500,zhuhai,12,CN,1548900000,26,40.71,112.04,5.0,2.24
501,angoche,0,MZ,1548903697,100,-16.23,39.91,79.97,6.42
502,tucurui,92,BR,1548903493,100,-3.77,-49.67,71.6,2.73
503,bikin,48,RU,1548903697,45,46.82,134.25,7.79,11.12
504,liverpool,0,GB,1548901200,92,53.41,-2.98,30.2,5.19
505,lausen,90,CH,1548901800,92,47.47,7.76,30.2,6.93
506,el alto,75,BO,1548900000,87,-16.5,-68.19,46.4,9.17
507,catuday,68,PH,1548903699,86,16.29,119.81,80.74,4.41
508,nieuw amsterdam,20,SR,1548900000,88,5.88,-55.08,77.0,5.82
509,plettenberg bay,92,ZA,1548903375,100,-34.05,23.37,67.28,5.53
510,muzhi,24,RU,1548903700,79,65.4,64.7,-37.93,3.06
511,casablanca,40,MA,1548901800,100,33.6,-7.62,48.2,3.36
512,kindu,92,CD,1548903700,100,-2.95,25.92,68.09,1.39
513,maniwaki,12,CA,1548903513,49,46.38,-75.98,1.31,9.66
514,lata,92,IN,1548903249,100,30.78,78.62,34.97,1.72
515,laramie,90,US,1548899880,32,41.31,-105.59,36.5,20.8
516,kefalos,40,GR,1548899400,76,36.75,26.96,53.6,14.99
517,gambela,0,ET,1548903250,81,8.25,34.59,59.09,3.62
518,mogadishu,8,SO,1548903702,100,2.04,45.34,78.13,23.31
519,leningradskiy,32,RU,1548903310,86,69.38,178.42,-9.27,16.49
520,freetown,80,BS,1548903703,100,26.61,-78.36,70.25,12.46
521,schweinfurt,1,DE,1548899760,90,50.05,10.23,25.88,6.76
522,altay,0,CN,1548903425,31,47.83,88.13,-25.6,2.28
523,saryg-sep,44,RU,1548903704,68,51.49,95.55,-17.68,0.6
524,owensboro,90,US,1548903300,77,37.77,-87.11,8.06,4.7
525,atambua,88,ID,1548903705,100,-9.11,124.89,76.46,5.19
526,yumen,0,CN,1548903409,53,40.29,97.04,-8.14,1.5
527,kosikha,80,RU,1548901800,70,53.36,84.58,1.4,6.71
528,russell,20,AR,1548900000,74,-33.01,-68.8,78.8,6.93
529,tecoanapa,40,MX,1548899520,61,16.99,-99.26,80.6,9.17
530,ketchikan,90,US,1548899760,95,55.34,-131.65,44.06,4.7
531,high point,1,US,1548902700,24,35.96,-80.01,30.2,9.22
532,guaruja,0,BR,1548900000,54,-23.99,-46.26,78.8,2.24
533,kieta,48,PG,1548903707,100,-6.22,155.63,79.34,2.39
534,constitucion,5,MX,1548899100,16,23.99,-104.67,59.0,9.17
535,oranjestad,20,AW,1548900000,74,12.52,-70.03,78.8,14.99
536,kayalpattinam,20,IN,1548901800,69,8.57,78.12,78.8,9.17
537,khromtau,12,KZ,1548903709,76,50.26,58.44,4.73,9.78
538,grand gaube,75,MU,1548900000,78,-20.01,57.66,80.6,6.93
539,syracuse,40,US,1548902100,53,43.05,-76.15,-0.05,13.87
540,batticaloa,92,LK,1548903710,92,7.71,81.69,80.15,11.79
541,cayenne,92,GF,1548901800,94,4.94,-52.33,75.2,10.29
542,arlit,0,NE,1548903711,47,18.74,7.39,45.91,2.62
543,roma,40,IT,1548901200,86,41.89,12.48,41.0,1.12
544,ahar,56,IR,1548903711,96,38.48,47.07,20.84,3.18
545,gornozavodsk,92,RU,1548903711,83,58.37,58.33,3.11,8.1
546,betare oya,76,CM,1548903712,77,5.6,14.08,66.92,2.39
547,aykhal,36,RU,1548903451,0,65.95,111.51,-46.35,3.74
548,evensk,24,RU,1548903407,100,61.92,159.24,13.33,18.84
549,nokaneng,0,BW,1548903713,81,-19.66,22.19,67.06,3.18
550,dalvik,88,SE,1548901200,92,57.79,14.13,10.4,3.36
551,gonbad-e qabus,0,IR,1548900000,86,37.25,55.17,42.8,6.2
552,aklavik,90,CA,1548902100,69,68.22,-135.01,-7.61,17.22
553,patancheru,0,IN,1548901800,93,17.53,78.27,62.6,10.67
554,oksfjord,12,NO,1548901200,67,70.24,22.35,17.6,40.26
555,mehamn,80,NO,1548903278,100,71.03,27.85,15.58,11.79
556,anantapur,0,IN,1548903715,87,14.68,77.61,64.49,7.99
557,san juan,40,PR,1548899760,79,18.47,-66.12,77.0,8.05
558,tyukhtet,24,RU,1548903718,75,56.54,89.31,-3.42,6.64
559,suure-jaani,80,EE,1548903718,91,58.54,25.46,24.49,4.97
560,usogorsk,92,RU,1548903718,90,63.43,48.71,10.99,4.97
561,hambantota,0,LK,1548900600,88,6.12,81.12,78.8,8.05
562,bose,75,IT,1548903000,92,45.46,8.01,28.4,2.24
563,rairangpur,0,IN,1548900000,81,22.27,86.18,50.0,3.62
564,boa vista,0,BR,1548900000,58,2.82,-60.67,82.4,12.75
565,cherskiy,56,RU,1548903255,65,68.75,161.3,-21.87,3.85
566,dingle,48,PH,1548903343,64,11.0,122.67,82.81,15.03
567,bandar,76,ID,1548903722,95,-4.2,104.14,79.52,4.74
568,riberalta,56,BO,1548903700,87,-11.0,-66.08,74.12,2.73
569,chapais,90,CA,1548902940,83,49.78,-74.86,-4.01,9.17
570,asmara,0,ER,1548903723,94,15.34,38.93,50.59,1.72
571,sterling,1,US,1548902100,43,39.0,-77.4,15.98,3.36
572,pavagada,0,IN,1548903724,87,14.1,77.28,64.49,7.99
573,mayna,68,RU,1548903724,48,53.0,91.49,13.46,2.62
574,lovington,1,US,1548902100,44,32.94,-103.35,37.4,5.82
575,tignere,12,CM,1548903725,52,7.37,12.65,56.71,4.41
576,orlik,8,RU,1548903725,50,52.51,99.83,6.35,8.88
577,khandbari,64,NP,1548903726,57,27.38,87.21,26.42,1.61
578,bosaso,36,SO,1548903726,100,11.28,49.18,73.63,8.21
579,taltal,20,CL,1548903726,89,-25.41,-70.49,61.07,2.39
580,grindavik,0,IS,1548901800,73,63.84,-22.43,23.0,10.29
